<?xml version="1.0" encoding="utf-8" ?>
<PowderAlert version="0.1.0">
  <Locations>
    <Location name="Hemsedal" latitude="60.86104" longitude="8.54714" area="0"/>
    <Location name="Rauland" latitude="59.72296" longitude="8.13031" area="0"/>
    <Location name="Stryn sommarski" latitude="61.9552" longitude="7.36038" area="1"/>
    <Location name="Hodlekve skisenter" latitude="61.29022" longitude="6.98417" area="1"/>
    <Location name="Røldal" latitude="59.8233575" longitude="6.7400457" area="1"/>
    <Location name="Stranda" latitude="62.289722114" longitude="6.8364143371" area="1"/>
    <Location name="Tryvann" latitude="59.988611" longitude="10.668056" area="0"/>
    <Location name="Stryn vinter" latitude="61.9328" longitude="6.75619" area="1"/>
    <Location name="Varingskollen alpinsenter" latitude="60.100278" longitude="10.831111" area="0"/>
    <Location name="Norefjell skisenter" latitude="60.2206" longitude="9.59855" area="0"/>
    <Location name="Hallingskarvet" latitude="60.6464" longitude="8.02813" area="0"/>
    <Location name="Skeikampen" latitude="61.3423" longitude="10.0898" area="0"/>
    <Location name="Alta alpinsenter" latitude="70.035" longitude="23.5668" area="3"/>
    <Location name="Kongsberg" latitude="59.6625" longitude="9.61991" area="0"/>
    <Location name="Gålå ski arena" latitude="61.6499" longitude="9.8" area="0"/>
    <Location name="Tyin-Filefjell skisenter" latitude="61.1887" longitude="8.21809" area="0"/>
    <Location name="Oppdal skisenter" latitude="62.6015" longitude="9.68549" area="2"/>
    <Location name="Grong skisenter" latitude="64.3944" longitude="12.32" area="2"/>
    <Location name="Vassfjellet skisenter" latitude="63.2656" longitude="10.4011" area="2"/>
    <Location name="Geilo" latitude="60.54" longitude="8.2" area="0"/>
    <Location name="Hafjell alpinsenter" latitude="61.2375" longitude="10.4754" area="0"/>
    <Location name="Trysilfjellet" latitude="61.308" longitude="12.2348" area="0"/>
    <Location name="Hovden skisenter" latitude="59.569" longitude="7.34869" area="0"/>
    <Location name="Stordal Alpinsenter" latitude="62.418916292" longitude="7.2199058532" area="1"/>
    <Location name="Ørsta Skisenter" latitude="62.150910726" longitude="6.2941360473" area="1"/>
    <Location name="Harpefossen Skisenter" latitude="61.957840453" longitude="5.9327888488" area="1"/>
    <Location name="Ørskogfjellet Skisenter" latitude="62.550957924" longitude="6.9797515869" area="1"/>
    <Location name="Sunnmørsalpane Skiarena Fjellseter" latitude="62.337418239" longitude="6.7638015747" area="1"/>
    <Location name="Volda Skisenter" latitude="62.152354123" longitude="6.1533737182" area="1"/>
  </Locations>
</PowderAlert>